city,lat,lng,country,date,maxtemp,humidity,cloudiness,windspeed
chuy,-33.69,-53.46,UY,1544318803,65.33,57,0,14.58
punta arenas,-53.16,-70.91,CL,1544317200,50.0,61,75,18.34
san cristobal,-0.39,-78.55,EC,1544317200,55.4,100,40,4.7
ushuaia,-54.81,-68.31,AR,1544317200,48.2,61,75,23.04
nizhniy kuranakh,58.84,125.49,RU,1544318804,-19.32,80,64,3.51
petropavlovsk-kamchatskiy,53.05,158.65,RU,1544317200,12.2,66,12,8.95
redwater,53.95,-113.11,CA,1544317200,19.4,62,1,9.17
acapulco,16.86,-99.88,MX,1544316600,82.4,78,5,5.82
bethel,60.79,-161.76,US,1544317620,24.98,92,90,10.29
gobabis,-22.45,18.97,NA,1544318806,60.61,25,0,13.24
vardo,39.62,-77.74,US,1544318100,30.2,60,1,3.85
jamestown,-33.21,138.6,AU,1544318807,86.57,38,64,4.63
victor harbor,-35.55,138.62,AU,1544317200,71.6,68,0,11.41
kapaa,22.08,-159.32,US,1544316960,80.96,55,75,21.92
tomatlan,19.93,-105.25,MX,1544318807,79.69,70,0,2.62
port alfred,-33.59,26.89,ZA,1544325083,63.62,100,68,10.09
rikitea,-23.12,-134.97,PF,1544325520,78.11,99,88,13.22
cairns,-16.92,145.77,AU,1544325000,75.2,94,90,11.41
marshall,39.39,-87.69,US,1544324100,26.06,84,1,6.93
gisborne,-38.66,178.02,NZ,1544325526,70.68,59,0,6.06
torbay,47.66,-52.73,CA,1544323680,26.6,100,90,16.11
sabang,13.72,123.58,PH,1544325584,82.52,90,56,12.1
leningradskiy,69.38,178.42,RU,1544325560,1.38,100,44,14.0
glenwood springs,39.55,-107.33,US,1544322600,19.4,92,90,5.82
sao filipe,14.9,-24.5,CV,1544325585,75.14,98,0,10.65
cockburn town,21.46,-71.14,TC,1544325585,80.27,100,20,19.93
bilma,18.69,12.92,NE,1544325585,48.72,56,0,10.76
hobart,-42.88,147.33,AU,1544322600,62.6,59,75,9.17
tasiilaq,65.61,-37.64,GL,1544323800,17.6,52,36,4.7
hermanus,-34.42,19.24,ZA,1544325536,48.14,100,12,2.82
pevek,69.7,170.27,RU,1544325586,-9.2,84,8,8.3
ossora,59.24,163.07,RU,1544325586,0.44,93,12,8.75
lebu,8.96,38.73,ET,1544325553,43.59,86,24,2.59
stepnyak,52.83,70.79,KZ,1544325586,-4.52,66,0,9.19
busselton,-33.64,115.35,AU,1544325087,72.21,80,0,11.77
namibe,-15.19,12.15,AO,1544325587,69.47,100,0,3.15
touros,-5.2,-35.46,BR,1544324400,80.6,83,40,4.7
flin flon,54.77,-101.88,CA,1544325587,8.76,77,56,6.06
new norfolk,-42.78,147.06,AU,1544324400,62.6,59,75,9.17
qaanaaq,77.48,-69.36,GL,1544325087,-4.56,92,32,8.41
east london,-33.02,27.91,ZA,1544324400,62.6,82,90,8.05
bluff,-23.58,149.07,AU,1544325531,75.95,66,92,15.46
saint-philippe,45.36,-73.48,CA,1544325060,15.8,85,1,3.36
bambous virieux,-20.34,57.76,MU,1544324400,78.8,83,75,10.29
barrow,-38.31,-60.23,AR,1544325588,77.57,34,32,18.81
mataura,-46.19,168.86,NZ,1544325522,62.49,95,92,11.43
cape town,-33.93,18.42,ZA,1544320800,59.0,82,0,8.05
kodiak,39.95,-94.76,US,1544324100,26.6,80,1,4.7
te anau,-45.41,167.72,NZ,1544325589,64.7,65,64,7.29
hilo,19.71,-155.08,US,1544323980,78.08,64,20,10.29
garbolovo,60.34,30.5,RU,1544324400,28.4,86,90,8.95
luderitz,-26.65,15.16,NA,1544325562,57.14,82,0,20.04
bibiani,6.45,-2.31,GH,1544325590,75.14,84,8,7.96
codrington,-28.95,153.24,AU,1544324400,86.0,51,75,9.17
vila velha,-3.71,-38.6,BR,1544324400,82.4,78,40,4.7
kununurra,-15.77,128.74,AU,1544324400,98.6,47,12,8.05
mahebourg,-20.41,57.7,MU,1544324400,78.8,83,75,10.29
ponta do sol,-20.63,-46.0,BR,1544325863,61.64,72,0,12.66
imbituba,-28.24,-48.67,BR,1544324400,64.4,77,75,12.44
poum,41.28,20.71,MK,1544324400,39.2,86,90,5.82
khorixas,-20.37,14.96,NA,1544325863,42.78,86,0,2.82
sarandi,-27.94,-52.92,BR,1544325639,59.3,47,0,13.11
tuktoyaktuk,69.44,-133.03,CA,1544324400,3.2,84,90,14.99
ngunguru,-35.62,174.5,NZ,1544325633,71.31,72,0,15.9
simbahan,6.3,120.58,PH,1544325864,85.62,96,0,4.83
slantsy,59.12,28.09,RU,1544325864,37.38,95,92,8.41
tezu,27.93,96.16,IN,1544325865,56.82,48,0,1.7
ballina,54.11,-9.15,IE,1544325865,46.52,99,92,20.83
klin,56.34,36.74,RU,1544324400,23.0,92,90,8.95
cayenne,4.94,-52.33,GF,1544324400,73.4,94,40,1.12
aviles,43.55,-5.92,ES,1544324400,55.4,76,8,10.29
bredasdorp,-34.53,20.04,ZA,1544324400,57.2,82,92,3.36
paralia,40.27,22.6,GR,1544322000,41.0,93,20,3.36
sangar,63.92,127.47,RU,1544325866,-38.67,0,44,3.49
atbasar,51.81,68.36,KZ,1544325605,-15.81,69,0,4.72
kuruman,-27.46,23.43,ZA,1544325866,52.41,26,0,8.63
kalat,29.03,66.58,PK,1544325867,30.09,86,44,3.6
aklavik,68.22,-135.01,CA,1544324400,1.4,84,75,4.7
whitehorse,60.72,-135.06,CA,1544324400,35.6,64,75,21.92
mehamn,71.03,27.85,NO,1544325867,9.8,100,8,6.4
gizo,31.8,34.94,IL,1544323800,57.2,82,75,4.7
lingao,19.91,109.69,CN,1544325868,65.46,100,92,16.24
chukhloma,58.76,42.68,RU,1544325868,14.34,89,68,9.64
freeport,26.54,-78.7,BS,1544325869,72.89,100,100,15.9
longyearbyen,78.22,15.63,NO,1544323800,26.6,58,40,13.87
chokurdakh,70.62,147.9,RU,1544325869,-31.61,0,36,4.38
albany,42.65,-73.75,US,1544324220,24.98,68,20,9.17
aurdal,60.92,9.42,NO,1544325870,18.12,87,92,2.48
lorengau,-2.02,147.27,PG,1544325801,83.87,100,76,8.86
veinticinco de mayo,-27.38,-54.75,AR,1544325870,61.64,65,0,7.18
hithadhoo,-0.6,73.08,MV,1544325870,82.38,100,48,4.38
yellowknife,62.45,-114.38,CA,1544324400,10.4,92,20,2.24
colquechaca,-18.7,-66.0,BO,1544326317,47.06,65,68,1.7
fortuna,38.18,-1.13,ES,1544324400,51.8,76,0,6.93
altay,47.83,88.13,CN,1544326318,-25.26,0,0,1.81
khuzdar,27.8,66.62,PK,1544326318,38.51,81,0,1.59
kaitangata,-46.28,169.85,NZ,1544326318,62.9,89,92,13.56
arkhangelskaya,45.68,40.28,RU,1544326319,23.21,77,0,3.71
pisco,-13.71,-76.2,PE,1544324400,68.0,82,0,9.17
rio grande,-32.03,-52.1,BR,1544326319,64.56,90,0,16.8
iskateley,67.68,53.15,RU,1544326319,19.16,82,76,18.03
benjamin constant,-4.38,-70.03,BR,1544324400,77.0,100,75,3.15
garmsar,35.22,52.34,IR,1544326320,30.77,78,0,2.04
paamiut,61.99,-49.67,GL,1544326320,27.93,100,48,14.0
les cayes,18.19,-73.75,HT,1544326268,79.82,100,0,10.09
duluth,46.77,-92.13,US,1544325300,24.8,83,90,6.93
port elizabeth,39.31,-74.98,US,1544324160,33.08,84,1,5.82
vaini,15.34,74.49,IN,1544324400,75.2,83,20,3.15
georgetown,6.8,-58.16,GY,1544324400,73.4,94,0,4.7
wenling,28.38,121.38,CN,1544326322,46.52,100,92,14.34
butaritari,3.07,172.79,KI,1544326322,85.67,100,12,4.61
columbus,32.46,-84.99,US,1544324100,44.6,92,90,13.87
kita,35.76,139.74,JP,1544324400,50.0,39,75,9.17
palmer,-34.85,139.16,AU,1544324400,77.0,57,0,16.11
galle,29.74,-97.91,US,1544324160,45.5,78,20,10.29
arraial do cabo,-22.97,-42.02,BR,1544326295,69.65,99,20,6.06
victoria,5.28,115.24,BN,1544324400,89.6,74,75,3.36
kavarskas,55.43,24.93,LT,1544326324,35.45,95,80,15.68
mayo,63.59,-135.9,CA,1544324400,28.4,74,90,10.29
dingle,11.0,122.67,PH,1544326324,83.37,74,36,13.22
hasaki,35.73,140.83,JP,1544324400,46.4,45,75,9.17
naron,43.52,-8.15,ES,1544324400,53.6,93,12,4.7
new bern,35.11,-77.04,US,1544324400,44.96,72,90,10.29
mar del plata,-46.43,-67.52,AR,1544326325,74.46,35,92,12.1
caracuaro,19.01,-101.13,MX,1544326325,57.86,86,0,1.36
green river,41.53,-109.47,US,1544324040,23.0,77,1,9.17
manjacaze,-24.71,33.88,MZ,1544326326,71.72,100,92,4.72
bagdarin,54.44,113.59,RU,1544326326,-22.47,29,0,3.04
naantali,60.45,22.03,FI,1544325600,41.0,100,92,16.11
yar-sale,66.83,70.83,RU,1544326326,14.16,92,68,3.38
auki,12.18,6.51,NG,1544326327,58.08,47,0,6.06
salalah,17.01,54.1,OM,1544323800,69.8,46,20,5.82
kyabe,9.45,18.94,TD,1544326327,64.61,56,0,4.16
avarua,-21.21,-159.78,CK,1544324400,80.6,88,90,13.87
plettenberg bay,-34.05,23.37,ZA,1544326361,60.78,100,56,10.42
provideniya,64.42,-173.23,RU,1544326361,16.91,100,20,20.49
visby,57.64,18.3,SE,1544323800,44.6,87,76,25.28
gambo,11.96,9.63,NG,1544326362,57.32,52,0,5.95
haines junction,60.75,-137.51,CA,1544326362,31.53,75,88,7.07
beira,43.2,-8.36,ES,1544324400,53.6,93,92,4.7
kruisfontein,-34.0,24.73,ZA,1544326363,58.89,91,20,9.08
inhambane,-23.87,35.38,MZ,1544326363,79.32,93,92,7.74
bathsheba,13.22,-59.52,BB,1544324400,78.8,61,20,18.34
saldanha,41.42,-6.55,PT,1544326363,28.7,81,0,1.03
coahuayana,18.62,-100.35,MX,1544326364,63.03,84,8,2.15
upernavik,72.79,-56.15,GL,1544326364,8.94,100,64,10.09
mokhsogollokh,61.4,128.95,RU,1544326364,-17.52,76,80,4.72
meulaboh,4.14,96.13,ID,1544326364,81.93,100,0,3.6
nangomba,-10.9,38.52,TZ,1544326365,73.25,88,12,3.71
vao,59.1,26.19,EE,1544326365,36.12,95,68,12.33
champerico,16.38,-93.6,MX,1544323440,69.8,73,5,4.7
kahului,20.89,-156.47,US,1544324700,77.0,73,40,16.11
champaign,40.12,-88.24,US,1544324160,21.02,84,1,10.29
ostersund,63.18,14.64,SE,1544323800,28.4,92,88,8.05
araouane,18.9,-3.53,ML,1544326366,50.07,41,0,7.07
atar,20.52,-13.05,MR,1544326397,54.89,41,0,7.29
castro,-42.48,-73.76,CL,1544324400,53.6,100,90,9.17
hofn,64.25,-15.21,IS,1544326397,31.71,100,0,13.67
la palma,5.36,-74.39,CO,1544326398,64.25,100,32,2.15
murovani kurylivtsi,48.71,27.54,UA,1544326398,33.96,96,44,4.83
broome,52.47,1.45,GB,1544325600,47.48,81,76,20.8
laguna,27.52,-110.01,MX,1544326399,57.86,87,0,4.5
praia da vitoria,38.73,-27.07,PT,1544324400,62.6,88,0,17.13
grindavik,63.84,-22.43,IS,1544324400,33.8,80,90,5.82
urubamba,-13.31,-72.12,PE,1544324400,48.2,61,24,1.36
aneho,6.23,1.6,TG,1544324400,80.6,94,20,3.36
san juan,14.6,121.03,PH,1544324400,87.8,55,75,5.82
hailun,47.46,126.97,CN,1544326401,-2.54,49,0,6.73
cabo san lucas,22.89,-109.91,MX,1544323380,68.0,82,5,5.82
utiel,39.57,-1.21,ES,1544324400,44.6,93,0,2.24
lardos,36.09,28.02,GR,1544325600,57.2,67,40,3.36
nome,30.04,-94.42,US,1544325300,46.22,81,90,13.87
kegums,56.75,24.72,LV,1544323800,37.4,93,90,17.22
daru,7.99,-10.85,SL,1544326402,70.19,81,0,2.26
baykit,61.68,96.39,RU,1544326402,-20.09,84,56,2.93
shingu,33.72,135.99,JP,1544324400,46.4,49,75,16.11
husavik,50.56,-96.99,CA,1544326403,0.26,74,0,7.63
port maria,18.37,-76.89,JM,1544324400,80.6,61,20,3.36
manzhouli,49.6,117.43,CN,1544326404,-5.91,53,0,3.15
rasht,37.28,49.58,IR,1544324400,53.6,93,75,4.7
dikson,73.51,80.55,RU,1544326404,15.24,97,76,31.12
barreiras,-12.14,-45.0,BR,1544326404,66.99,99,88,2.59
chingirlau,51.09,54.08,KZ,1544326405,21.72,90,92,5.61
puerto ayora,-0.74,-90.35,EC,1544326405,72.44,100,24,8.75
katobu,-4.94,122.53,ID,1544326516,89.09,78,32,5.39
gamboula,4.12,15.14,CF,1544326516,68.07,93,24,5.84
ozernovskiy,51.5,156.52,RU,1544326516,26.94,100,64,3.71
singaraja,-8.11,115.08,ID,1544326516,80.0,90,88,1.92
katangli,51.71,143.23,RU,1544326517,9.03,100,88,17.81
sorland,67.67,12.69,NO,1544326517,39.95,100,48,25.3
nantucket,41.28,-70.1,US,1544324160,28.04,36,1,12.75
antsohihy,-14.88,47.99,MG,1544326517,72.48,97,8,4.38
nanortalik,60.14,-45.24,GL,1544326517,26.67,92,56,13.78
oga,8.18,5.65,NG,1544326518,72.39,70,48,7.63
mtambile,-5.38,39.7,TZ,1544326518,81.62,100,76,3.6
chuari khas,32.43,76.02,IN,1544326518,38.15,56,20,1.92
tiksi,71.64,128.87,RU,1544326518,-38.9,0,24,3.15
amahai,-3.31,129.0,ID,1544326519,86.34,99,12,8.63
fare,-16.7,-151.02,PF,1544326519,80.09,100,92,15.35
necochea,-38.55,-58.74,AR,1544326519,72.26,50,8,17.81
acurenam,1.03,10.67,GA,1544326519,67.67,98,92,1.7
roald,62.58,6.12,NO,1544325600,37.4,93,92,9.17
xining,36.62,101.77,CN,1544326238,25.19,31,8,2.93
okhotsk,59.36,143.24,RU,1544326520,9.8,100,8,6.73
port-cartier,50.03,-66.88,CA,1544324400,6.8,60,90,4.7
warwick,41.7,-71.42,US,1544324160,26.96,56,20,4.7
teguise,29.06,-13.56,ES,1544324400,60.8,93,0,8.05
liverpool,53.41,-2.98,GB,1544325600,48.2,87,75,19.46
lagoa,37.14,-8.45,PT,1544324400,53.6,76,0,3.36
umba,66.69,34.34,RU,1544326521,29.37,94,92,13.33
kavieng,-2.57,150.8,PG,1544326522,84.09,100,44,6.62
walvis bay,-22.95,14.51,NA,1544324400,55.4,93,90,3.36
nikolskoye,59.7,30.79,RU,1544324400,28.4,86,90,8.95
kokoda,-8.88,147.74,PG,1544326575,74.6,80,20,0.69
maniitsoq,65.42,-52.9,GL,1544326575,8.31,100,0,6.62
airai,-8.93,125.41,TL,1544326575,80.31,86,24,2.04
tuatapere,-46.13,167.69,NZ,1544326575,61.77,85,80,10.42
bereda,43.27,-7.54,ES,1544324400,53.6,93,64,4.7
hamilton,32.3,-64.78,BM,1544324100,64.4,68,90,13.87
boralday,43.36,76.86,KZ,1544324400,26.6,86,90,2.24
kharp,66.82,65.8,RU,1544326576,-0.69,56,20,3.04
hambantota,6.12,81.12,LK,1544321400,77.0,100,90,5.17
mersing,2.43,103.84,MY,1544326577,83.37,94,80,4.83
silopi,37.25,42.47,IQ,1544326577,43.68,100,92,2.93
tocopilla,-22.09,-70.2,CL,1544326578,59.43,95,64,4.72
atuona,-9.8,-139.03,PF,1544326578,80.72,100,88,15.68
polson,47.69,-114.16,US,1544324100,24.08,77,90,1.14
klaksvik,62.23,-6.59,FO,1544325600,33.8,80,32,6.93
guiren,22.97,120.29,TW,1544324400,80.6,69,40,6.93
cidreira,-30.17,-50.22,BR,1544326579,64.11,71,0,15.46
juneau,58.3,-134.42,US,1544324160,48.02,70,90,18.34
broken hill,-31.97,141.45,AU,1544324400,100.4,11,0,11.41
takoradi,4.89,-1.75,GH,1544326579,80.49,100,12,6.17
bageshwar,29.85,79.77,IN,1544326579,38.42,64,0,2.71
port macquarie,-31.43,152.91,AU,1544324400,82.4,54,0,16.11
kirakira,-10.46,161.92,SB,1544326852,85.17,100,12,5.06
bilibino,68.06,166.44,RU,1544326852,-39.08,0,32,2.04
portland,45.52,-122.67,US,1544323980,41.0,59,90,16.11
srednekolymsk,67.46,153.71,RU,1544326853,-33.81,0,64,2.82
sulangan,11.14,123.72,PH,1544326853,83.06,97,44,16.8
weinsberg,49.15,9.29,DE,1544325600,46.4,87,90,17.22
carnarvon,-30.97,22.13,ZA,1544326853,47.28,95,0,12.77
hovd,63.83,10.7,NO,1544323800,33.8,98,90,6.93
guerrero negro,27.97,-114.04,MX,1544326854,60.78,87,0,8.19
port hardy,50.7,-127.42,CA,1544324400,42.8,81,75,28.86
talnakh,69.49,88.39,RU,1544326854,-2.09,71,76,18.59
russell,-33.01,-68.8,AR,1544326855,50.21,36,0,4.16
margate,-43.03,147.26,AU,1544324400,62.6,59,75,9.17
norman wells,65.28,-126.83,CA,1544324400,12.2,92,20,5.82
mount isa,-20.73,139.49,AU,1544324400,98.6,13,0,13.87
manati,41.76,19.67,AL,1544325600,48.2,93,75,4.7
totness,33.74,-80.8,US,1544325960,41.0,93,90,14.99
bam,29.11,58.36,IR,1544326856,33.2,55,0,4.27
coolum beach,-26.53,153.09,AU,1544326856,73.97,86,92,8.52
ustye,58.76,27.79,RU,1544326856,35.54,91,92,13.44
byron bay,-28.65,153.62,AU,1544324400,86.0,61,88,13.87
ambilobe,-13.19,49.05,MG,1544326857,69.51,88,0,3.71
hampton,42.74,-93.2,US,1544325300,21.2,92,1,3.36
karratha,-20.74,116.85,AU,1544326946,109.16,12,36,6.96
havelock,34.88,-76.9,US,1544324280,44.96,70,90,13.87
sinnamary,5.38,-52.96,GF,1544326946,79.82,93,48,10.98
ahipara,-35.17,173.16,NZ,1544326947,69.47,66,0,15.79
harper,30.3,-99.24,US,1544325300,41.0,83,90,10.29
ribeira grande,38.52,-28.7,PT,1544326947,65.06,97,80,17.36
pangnirtung,66.15,-65.72,CA,1544326947,-17.39,76,0,1.81
progreso,-34.68,-56.22,UY,1544324400,62.6,55,0,4.7
aksarka,66.56,67.8,RU,1544326948,14.39,85,44,3.6
college,64.86,-147.8,US,1544324280,19.94,96,90,4.7
barra do garcas,-15.89,-52.26,BR,1544326784,72.62,92,32,3.71
hualmay,-11.1,-77.61,PE,1544326948,62.67,95,64,5.28
antigonish,45.62,-61.99,CA,1544324400,17.6,72,90,13.87
saint george,39.45,22.34,GR,1544325600,44.6,81,75,3.36
maragogi,-9.01,-35.22,BR,1544326709,76.98,97,80,5.73
edd,13.93,41.69,ER,1544326949,71.31,95,88,1.81
nsunga,-1.13,31.39,TZ,1544326949,60.92,96,92,2.59
iqaluit,63.75,-68.52,CA,1544324400,-4.01,76,75,7.63
mandalgovi,45.76,106.27,MN,1544326950,-13.25,53,0,3.6
havre,48.55,-109.68,US,1544323980,17.06,83,1,3.36
tete,-16.16,33.59,MZ,1544326950,73.83,87,36,3.94
rawson,-43.3,-65.11,AR,1544326943,77.52,27,48,13.67
esperance,10.24,-61.45,TT,1544324400,75.2,83,20,5.17
vanimo,-2.67,141.3,PG,1544326951,82.34,100,36,12.33
senanga,-16.1,23.3,ZM,1544326952,72.71,78,36,6.85
pervoavgustovskiy,52.23,35.05,RU,1544326952,30.36,92,88,13.33
cherskiy,68.75,161.3,RU,1544326919,-22.16,98,68,3.71
abu samrah,35.3,37.18,SY,1544326952,42.87,89,80,2.71
hami,42.84,93.51,CN,1544326952,-0.69,53,0,2.93
tautira,-17.73,-149.15,PF,1544326200,84.2,70,40,13.87
tumen,42.97,129.84,CN,1544327056,9.89,40,0,7.96
geraldton,49.72,-86.95,CA,1544324400,19.4,67,75,13.87
praia,-20.25,-43.81,BR,1544324400,64.4,72,0,10.29
yulara,-25.24,130.99,AU,1544324400,104.0,12,0,6.93
vanavara,60.35,102.28,RU,1544327057,-21.8,31,64,3.04
adeje,5.68,5.76,NG,1544327057,74.73,92,32,3.15
hereford,52.06,-2.72,GB,1544327057,44.72,95,92,21.39
ilebo,-4.33,20.59,CD,1544327058,71.49,98,92,2.71
boden,65.83,21.69,SE,1544325600,32.0,93,88,2.24
padang,-0.92,100.36,ID,1544327058,81.66,100,36,4.94
llangefni,53.26,-4.31,GB,1544325600,50.0,81,92,33.33
lasa,34.92,32.53,CY,1544324400,62.6,63,75,6.93
mnogovershinnyy,53.94,139.92,RU,1544327000,17.67,76,76,11.54
puerto madryn,-42.77,-65.04,AR,1544327059,72.35,49,12,17.25
doha,25.29,51.53,QA,1544326200,69.8,60,0,5.82
ostrovnoy,68.05,39.51,RU,1544327060,24.78,94,80,11.88
ouro preto do oeste,-10.75,-62.22,BR,1544326841,73.7,97,32,1.92
caravelas,-17.73,-39.27,BR,1544327111,75.36,100,100,22.06
port lincoln,-34.72,135.86,AU,1544327112,66.27,86,56,14.45
sao joao da barra,-21.64,-41.05,BR,1544327112,73.83,100,56,13.22
katherine,-14.47,132.26,AU,1544324400,96.8,39,0,5.82
sambava,-14.27,50.17,MG,1544327112,78.06,100,44,11.99
ondjiva,-17.07,15.73,AO,1544327113,61.37,35,0,7.85
dondo,-19.62,34.74,MZ,1544324400,80.6,88,75,4.7
porto velho,-8.75,-63.87,BR,1544324400,75.2,94,75,3.36
faanui,-16.48,-151.75,PF,1544327113,80.0,100,36,11.43
northam,51.04,-4.21,GB,1544323800,51.8,71,92,26.4
mount gambier,-37.83,140.78,AU,1544324400,75.2,53,48,9.17
alyangula,-13.85,136.42,AU,1544324400,93.2,46,90,6.93
atambua,-9.11,124.89,ID,1544327171,84.54,96,36,4.94
barcelos,41.53,-8.62,PT,1544324400,48.2,100,20,2.15
quatre cocos,-20.21,57.76,MU,1544324400,78.8,83,75,10.29
souillac,45.6,-0.6,FR,1544324400,55.4,82,90,18.34
hukuntsi,-23.98,21.76,BW,1544327173,65.01,22,0,11.43
sechura,-5.56,-80.82,PE,1544326995,69.33,86,0,10.2
namatanai,-3.66,152.44,PG,1544327048,85.08,99,64,5.17
tiarei,-17.53,-149.33,PF,1544326200,84.2,70,40,13.87
avera,33.19,-82.53,US,1544326500,42.98,100,90,11.41
lavrentiya,65.58,-170.99,RU,1544327007,18.48,100,36,30.11
dongsheng,29.72,112.52,CN,1544327236,34.82,78,88,5.73
edea,3.8,10.13,CM,1544327236,73.92,95,100,4.72
sherlovaya gora,50.53,116.31,RU,1544327237,-8.84,62,0,3.15
pacific grove,36.62,-121.92,US,1544325300,53.06,73,1,4.7
anadyr,64.73,177.51,RU,1544326200,-14.81,75,20,8.95
henties bay,-22.12,14.28,NA,1544327037,57.86,100,24,9.08
quesnel,52.98,-122.49,CA,1544324400,24.8,79,1,6.93
turka,49.16,23.03,UA,1544327238,27.89,90,20,8.08
aykhal,65.95,111.51,RU,1544327238,-20.36,28,8,2.71
casablanca,33.6,-7.62,MA,1544324400,51.8,100,90,5.82
thompson,55.74,-97.86,CA,1544324400,6.8,92,75,2.37
banjar,-7.37,108.54,ID,1544327238,82.29,83,64,3.6
dunedin,-45.87,170.5,NZ,1544326954,65.19,88,92,0.81
miquelon,47.1,-56.38,PM,1544327239,29.15,100,12,17.69
opuwo,-18.06,13.84,NA,1544327239,46.25,74,0,2.82
dinajpur,25.63,88.63,BD,1544327239,64.83,72,0,3.49
alta gracia,-31.66,-64.43,AR,1544324400,66.2,63,0,9.17
bagrami,34.49,69.27,AF,1544327536,24.51,86,88,1.36
half moon bay,37.46,-122.43,US,1544326800,55.94,76,20,3.36
karasjok,69.47,25.52,NO,1544325600,6.8,84,76,11.41
hanover,52.37,9.74,DE,1544325600,46.4,81,75,19.46
monrovia,6.33,-10.8,LR,1544326200,75.2,94,40,5.39
san patricio,-26.98,-56.83,PY,1544327537,57.77,80,0,2.04
bordighera,43.79,7.66,IT,1544324100,51.8,66,5,4.7
saskylakh,71.97,114.09,RU,1544327538,-11.09,56,24,3.38
novospasskoye,53.15,47.75,RU,1544327538,19.11,90,68,3.94
trat,12.25,102.51,TH,1544324400,84.2,79,75,8.05
jiazi,19.61,110.49,CN,1544324400,69.8,94,90,13.42
ilulissat,69.22,-51.1,GL,1544323800,5.0,71,0,6.93
parfino,57.97,31.65,RU,1544327538,30.09,89,92,10.76
bernay,49.09,0.6,FR,1544324400,51.8,76,75,19.46
ribeirao branco,-24.22,-48.77,BR,1544327539,55.74,78,8,8.97
ugoofaaru,5.67,73.0,MV,1544327539,82.97,100,80,8.86
san policarpo,12.18,125.51,PH,1544327539,83.06,90,76,14.23
najran,17.54,44.22,SA,1544324400,62.6,48,0,2.24
buraydah,26.33,43.97,SA,1544324400,55.4,100,0,4.7
bandarbeyla,9.49,50.81,SO,1544327540,78.02,100,100,14.56
coihaique,-45.58,-72.07,CL,1544324400,60.8,59,90,6.93
saint-joseph,43.56,6.97,FR,1544324400,51.8,71,0,12.75
payette,44.08,-116.93,US,1544325300,33.08,75,90,3.04
zhanaozen,43.35,52.85,KZ,1544327658,34.64,84,92,5.95
xingcheng,40.62,120.71,CN,1544327950,19.07,51,64,4.38
ibirama,-27.05,-49.52,BR,1544327951,55.38,78,0,5.17
pinawa,50.15,-95.88,CA,1544327951,4.17,79,12,9.86
albion,41.69,-98.0,US,1544327700,21.92,85,1,4.7
campoverde,41.54,12.73,IT,1544327400,44.6,70,0,4.7
alofi,-19.06,-169.92,NU,1544324400,80.6,78,92,11.41
sampit,-2.54,112.95,ID,1544327952,84.63,99,32,4.38
seka,7.6,36.72,ET,1544327953,53.76,95,32,3.27
astara,38.42,48.87,AZ,1544324400,48.2,100,90,2.24
shieli,44.18,66.74,KZ,1544327953,30.95,91,92,4.16
rozkishne,48.5,37.59,UA,1544327953,25.32,91,44,10.76
severo-kurilsk,50.68,156.12,RU,1544327600,31.26,100,44,4.5
kalmar,56.66,16.36,SE,1544325600,46.4,81,88,16.11
sol-iletsk,51.16,55.0,RU,1544327954,15.51,85,92,6.4
nioro,13.79,-15.05,GM,1544327954,67.53,42,0,6.96
volosovo,59.45,29.48,RU,1544326200,28.4,86,90,11.18
hailar,49.2,119.7,CN,1544328619,-8.61,61,0,4.72
dafeng,33.2,120.46,CN,1544328745,42.51,72,92,5.95
batagay-alyta,67.8,130.41,RU,1544328745,-32.6,0,36,2.15
morant bay,17.88,-76.41,JM,1544328000,78.8,65,20,4.7
linhares,-19.38,-40.06,BR,1544328746,68.75,92,76,11.54
road town,18.42,-64.62,VG,1544323980,78.08,73,1,4.7
marzuq,14.4,46.47,YE,1544328746,45.26,89,0,2.48
onega,63.91,38.09,RU,1544328747,24.65,93,44,19.26
pochutla,15.74,-96.47,MX,1544328747,79.86,100,0,4.61
nanton,50.35,-113.77,CA,1544328747,13.22,57,0,5.73
sandpoint,48.28,-116.55,US,1544327760,28.4,63,88,8.05
ternate,14.29,120.72,PH,1544328000,86.0,66,40,6.93
kidal,18.44,1.41,ML,1544328748,49.49,72,0,4.72
ancud,-41.87,-73.83,CL,1544328000,53.6,100,90,10.29
quimper,48.0,-4.1,FR,1544326200,51.8,71,75,18.34
dieppe,49.92,1.08,FR,1544326200,46.4,87,92,19.46
puerto escondido,15.86,-97.07,MX,1544328749,83.06,100,0,3.71
carutapera,-1.2,-46.02,BR,1544328642,79.55,87,100,5.28
soubre,5.79,-6.61,CI,1544328749,72.71,97,0,4.83
tiznit,29.7,-9.73,MA,1544328750,56.96,80,0,4.94
katsuura,33.93,134.5,JP,1544328000,46.4,56,75,11.41
tongchuan,34.9,108.95,CN,1544328000,30.2,36,0,6.71
armidale,-30.51,151.67,AU,1544329069,77.66,57,0,4.61
yuxia,34.06,108.63,CN,1544328000,30.2,36,0,6.71
batticaloa,7.71,81.69,LK,1544329069,76.53,100,92,8.63
mackenzie,55.34,-123.09,CA,1544324400,23.0,73,90,3.36
asosa,10.07,34.53,ET,1544329069,59.39,58,0,2.93
pasewalk,53.51,13.99,DE,1544328000,42.8,93,75,13.87
kingman,35.19,-114.05,US,1544326500,59.0,62,1,5.82
beringovskiy,63.05,179.32,RU,1544328868,3.14,100,44,21.72
diffa,13.32,12.61,NE,1544329070,56.64,49,0,6.73
jimenez,8.54,-82.37,PA,1544329070,70.1,100,0,2.59
bukachacha,52.99,116.91,RU,1544329071,-16.62,68,0,2.48
chimbote,-9.08,-78.59,PE,1544329071,63.89,94,80,6.29
corrente,-17.45,-44.68,BR,1544329071,65.6,95,92,10.87
bela,26.23,66.31,PK,1544329071,47.37,82,0,2.48
nisia floresta,-6.09,-35.21,BR,1544328000,80.6,83,20,6.93
comodoro rivadavia,-45.87,-67.48,AR,1544328000,69.8,28,0,19.46
samarai,-10.62,150.67,PG,1544328929,84.54,100,36,8.41
dalvik,57.79,14.13,SE,1544327400,39.2,100,92,12.75
bileca,42.87,18.43,BA,1544326200,48.2,49,0,19.46
ibimirim,-8.54,-37.69,BR,1544328817,66.27,99,36,2.71
kloulklubed,7.04,134.26,PW,1544327700,80.6,94,75,8.05
noumea,-22.28,166.46,NC,1544328000,84.2,42,0,10.29
zonguldak,41.25,31.83,TR,1544329683,36.71,95,76,2.59
ahar,38.48,47.07,IR,1544329683,29.82,99,68,2.71
san francisco,37.78,-122.42,US,1544328000,55.04,74,1,7.07
general roca,-39.03,-67.58,AR,1544328000,68.0,40,0,9.17
slave lake,55.28,-114.77,CA,1544328000,8.6,92,1,2.24
weligama,5.97,80.42,LK,1544329685,74.28,100,92,5.06
ixtapa,20.71,-105.21,MX,1544326980,77.0,88,5,4.7
benton,34.56,-92.59,US,1544327760,35.96,92,90,12.75
maldonado,-34.91,-54.96,UY,1544328000,60.8,72,0,4.7
kawalu,-7.38,108.21,ID,1544329686,76.98,85,80,2.93
dzhuryn,49.03,25.58,UA,1544328000,30.2,100,0,4.47
port-gentil,-0.72,8.78,GA,1544329686,75.09,100,76,3.15
erenhot,43.65,111.97,CN,1544329686,-5.78,39,0,4.5
tricase,39.93,18.36,IT,1544324100,53.6,81,5,12.75
rantepao,-2.97,119.9,ID,1544329687,80.36,78,24,2.48
puerto leguizamo,-0.19,-74.78,CO,1544329828,70.81,99,92,2.35
khatanga,71.98,102.47,RU,1544329828,-14.25,65,48,4.92
misrikh,27.43,80.53,IN,1544329829,66.13,92,0,4.59
kabelvag,68.21,14.48,NO,1544329829,34.36,100,64,12.8
arlit,18.74,7.39,NE,1544329829,49.75,63,0,5.08
kindia,10.05,-12.86,GN,1544329829,61.13,85,0,2.57
bambanglipuro,-7.95,110.28,ID,1544329830,84.58,89,68,4.36
olga,34.11,-118.17,US,1544327880,60.98,74,1,4.7
riverton,43.02,-108.38,US,1544327700,26.6,67,1,8.05
viamao,-30.08,-51.02,BR,1544328000,59.0,82,0,8.05
gallup,35.53,-108.74,US,1544327580,30.02,88,1,4.7
richards bay,-28.77,32.06,ZA,1544329831,68.69,100,92,7.61
wanaka,-44.7,169.14,NZ,1544329831,67.16,51,68,3.24
mitu,36.2,46.09,IR,1544329831,36.38,100,80,2.91
yangambi,0.77,24.47,CD,1544329832,74.23,94,92,3.13
madimba,4.42,9.93,CM,1544329832,74.5,98,80,2.62
cariamanga,-4.33,-79.56,EC,1544329832,61.81,95,92,1.01
garchitorena,13.88,123.7,PH,1544329916,82.51,87,76,11.3
corner brook,48.95,-57.95,CA,1544328000,19.4,85,40,8.05
dimona,31.07,35.04,IL,1544329917,48.94,90,92,3.36
brae,60.4,-1.35,GB,1544329200,41.0,65,36,21.92
mudgee,-32.6,149.59,AU,1544328000,93.2,14,0,6.93
maine-soroa,13.21,12.02,NE,1544329917,56.5,50,0,6.38
ulladulla,-35.36,150.48,AU,1544329918,71.35,86,32,7.54
druskininkai,54.02,23.98,LT,1544328000,33.8,95,0,8.95
lompoc,34.64,-120.46,US,1544328900,51.08,81,1,4.7
camacha,33.08,-16.33,PT,1544328000,64.4,77,75,13.87
jalingo,10.3,10.93,NG,1544329919,65.5,39,0,9.78
miguel hidalgo,19.41,-99.19,MX,1544327160,60.8,51,40,4.7
ayaviri,-14.88,-70.59,PE,1544329919,24.14,71,0,2.57
manuk mangkaw,4.8,119.85,PH,1544329919,86.38,100,24,2.28
mianyang,31.46,104.75,CN,1544329920,37.96,100,92,4.74
dunaszekcso,46.09,18.76,HU,1544328000,33.8,79,20,5.82
serpa,37.94,-7.6,PT,1544328000,46.4,100,0,5.82
lakes entrance,-37.88,147.99,AU,1544330213,67.84,96,92,3.85
askiz,53.13,90.53,RU,1544330213,-5.7,68,36,2.51
safakulevo,54.99,62.54,RU,1544330213,-0.21,43,0,7.27
chapais,49.78,-74.86,CA,1544328000,-2.21,84,90,5.82
motygino,58.18,94.69,RU,1544330213,-13.89,85,64,3.06
colares,38.8,-9.45,PT,1544328000,48.2,87,0,3.36
ranong,9.96,98.62,TH,1544328000,84.2,70,75,11.41
bubaque,11.28,-15.83,GW,1544330214,79.18,100,0,5.59
chicama,-7.84,-79.15,PE,1544328000,68.0,88,75,5.82
bafq,31.6,55.4,IR,1544329951,49.79,34,0,1.72
marsaxlokk,35.84,14.54,MT,1544328900,55.4,71,20,14.99
deputatskiy,69.3,139.9,RU,1544330215,-35.58,0,20,3.24
ankazobe,-18.32,47.12,MG,1544328000,66.2,82,20,5.82
fallon,46.84,-105.12,US,1544327760,15.08,80,1,5.08
shizunai,42.33,142.37,JP,1544330216,23.2,100,12,11.9
tra vinh,9.93,106.35,VN,1544330216,86.47,69,80,11.9
murgab,37.5,61.97,TM,1544328000,50.0,87,90,4.7
sungaipenuh,-2.08,101.38,ID,1544330358,76.21,91,20,1.23
kemin,42.79,75.7,KG,1544330359,32.92,92,80,2.28
westport,53.8,-9.52,IE,1544330173,47.18,95,80,19.39
cervo,-22.19,-46.24,BR,1544330359,49.84,91,0,4.92
barcelona,41.38,2.18,ES,1544328000,44.6,81,0,13.87
polunochnoye,60.87,60.43,RU,1544330360,9.52,70,0,2.8
horsham,-36.71,142.2,AU,1544330360,67.39,92,92,7.09
ust-omchug,61.13,149.63,RU,1544330360,-26.58,0,24,3.58
marsa matruh,31.35,27.25,EG,1544324400,57.2,76,40,10.29
plerin,48.54,-2.78,FR,1544328000,51.8,71,90,20.8
sandnessjoen,66.02,12.63,NO,1544329200,33.8,64,88,16.11
magadan,59.56,150.8,RU,1544330361,12.04,100,0,21.59
sao fidelis,-21.65,-41.75,BR,1544330361,54.16,92,8,2.13
coquimbo,-29.95,-71.34,CL,1544328000,60.8,82,0,5.82
salinopolis,-0.61,-47.36,BR,1544330362,80.08,100,92,7.43
santa isabel do rio negro,-0.41,-65.02,BR,1544330362,75.71,96,44,2.73
seoul,37.57,126.98,KR,1544329800,26.6,23,1,3.36
saint-denis,48.94,2.36,FR,1544328000,48.2,70,40,19.46
zhezkazgan,47.8,67.71,KZ,1544329800,6.8,77,80,13.42
tupik,54.43,119.94,RU,1544330995,-19.06,77,0,2.57
port hueneme,34.15,-119.2,US,1544327820,55.04,80,20,5.82
pittsfield,39.61,-90.81,US,1544330100,21.2,83,1,4.7
smirnykh,49.74,142.83,RU,1544330996,6.91,53,36,11.3
peniche,39.36,-9.38,PT,1544328000,48.2,100,40,2.24
charters towers,-20.07,146.27,AU,1544330452,72.07,97,92,16.89
belyy yar,53.6,91.39,RU,1544329800,-2.21,70,32,2.06
uporovo,56.31,66.27,RU,1544330997,-1.65,59,0,7.05
amurzet,47.69,131.09,CN,1544330998,4.34,62,36,9.4
huarmey,-10.07,-78.15,PE,1544330998,57.53,92,12,2.51
ust-kuyga,70.0,135.55,RU,1544330976,-45.16,0,20,2.84
alta,69.97,23.27,NO,1544329200,8.6,84,12,11.41
ellisras,-23.67,27.74,ZA,1544330998,73.01,77,68,4.81
owando,-0.49,15.91,CG,1544330999,69.28,99,92,3.29
biskamzha,53.45,89.53,RU,1544330999,-0.75,72,20,2.91
chapleau,47.85,-83.4,CA,1544330999,27.79,76,44,13.87
mezen,65.85,44.24,RU,1544330999,21.4,70,56,9.55
mana,43.52,20.24,RS,1544329800,30.2,92,0,1.12
aksu,52.04,76.93,KZ,1544329800,3.2,71,0,13.42
matay,28.42,30.79,EG,1544331000,44.26,81,36,2.73
vostok,46.45,135.83,RU,1544330890,-5.25,53,36,5.75
kabalo,-6.05,26.92,CD,1544331001,70.31,100,92,4.41
komsomolskiy,67.55,63.78,RU,1544331656,14.51,83,80,13.2
mareeba,-16.99,145.42,AU,1544329800,77.0,88,90,16.11
zaykovo,57.56,62.76,RU,1544331701,12.22,68,56,3.13
lata,30.78,78.62,IN,1544331701,48.76,65,0,2.01
kayes,14.44,-11.44,ML,1544331702,58.21,52,0,6.64
stonewall,50.13,-97.33,CA,1544328000,10.4,85,5,9.17
taoudenni,22.68,-3.98,ML,1544331703,51.82,54,0,12.3
lianzhou,24.79,112.38,CN,1544331703,37.73,97,100,2.91
soyo,-6.13,12.37,AO,1544331703,73.87,99,92,4.14
challapata,-18.9,-66.78,BO,1544331704,37.06,96,88,2.8
hay river,60.82,-115.79,CA,1544328000,28.4,74,20,12.75
udachnyy,66.42,112.4,RU,1544331704,-24.96,36,0,2.39
luganville,-15.51,167.18,VU,1544331704,80.17,100,92,18.61
antalaha,-14.9,50.28,MG,1544331705,80.62,83,56,7.31
